{"type":"FeatureCollection", "features": [
{"type":"Feature","geometry":{"type":"Point","coordinates":[122.23922,-17.95538]},"properties":{"OBJECTID":1623,"FEATTYPE":"Town","NAME":"BROOME","FEATREL":"2002-09-13T00:00:00.000Z","ATTRREL":"2002-09-13T00:00:00.000Z","PLANACC":9999,"SOURCE":"GEOSCIENCE AUSTRALIA","CREATED":"2006-05-09T00:00:00.000Z","RETIRED":"1899-11-30T00:00:00.000Z","PID":3836246,"SYMBOL":0,"FEATWIDTH":0,"ORIENTATN":0,"TEXTNOTE":""}},
{"type":"Feature","geometry":{"type":"Point","coordinates":[123.64032,-17.30933]},"properties":{"OBJECTID":1629,"FEATTYPE":"Town","NAME":"DERBY","FEATREL":"2000-11-03T00:00:00.000Z","ATTRREL":"2000-11-03T00:00:00.000Z","PLANACC":9999,"SOURCE":"GEOSCIENCE AUSTRALIA","CREATED":"2006-05-09T00:00:00.000Z","RETIRED":"1899-11-30T00:00:00.000Z","PID":3837218,"SYMBOL":0,"FEATWIDTH":0,"ORIENTATN":0,"TEXTNOTE":""}},
{"type":"Feature","geometry":{"type":"Point","coordinates":[127.66647,-18.22485]},"properties":{"OBJECTID":1289,"FEATTYPE":"Town","NAME":"HALLS CREEK","FEATREL":"2002-10-17T00:00:00.000Z","ATTRREL":"2002-10-17T00:00:00.000Z","PLANACC":9999,"SOURCE":"GEOSCIENCE AUSTRALIA","CREATED":"2006-05-09T00:00:00.000Z","RETIRED":"1899-11-30T00:00:00.000Z","PID":3836061,"SYMBOL":0,"FEATWIDTH":0,"ORIENTATN":0,"TEXTNOTE":""}},
{"type":"Feature","geometry":{"type":"Point","coordinates":[125.56663,-18.19714]},"properties":{"OBJECTID":1291,"FEATTYPE":"Town","NAME":"FITZROY CROSSING","FEATREL":"2001-11-01T00:00:00.000Z","ATTRREL":"2001-11-01T00:00:00.000Z","PLANACC":9999,"SOURCE":"GEOSCIENCE AUSTRALIA","CREATED":"2006-05-09T00:00:00.000Z","RETIRED":"1899-11-30T00:00:00.000Z","PID":3836063,"SYMBOL":0,"FEATWIDTH":0,"ORIENTATN":0,"TEXTNOTE":""}},
{"type":"Feature","geometry":{"type":"Point","coordinates":[128.12429,-15.486899999999999]},"properties":{"OBJECTID":290,"FEATTYPE":"Town","NAME":"WYNDHAM","FEATREL":"2004-04-17T00:00:00.000Z","ATTRREL":"2004-04-17T00:00:00.000Z","PLANACC":9999,"SOURCE":"GEOSCIENCE AUSTRALIA","CREATED":"2006-05-09T00:00:00.000Z","RETIRED":"1899-11-30T00:00:00.000Z","PID":3836907,"SYMBOL":0,"FEATWIDTH":0,"ORIENTATN":0,"TEXTNOTE":""}},
{"type":"Feature","geometry":{"type":"Point","coordinates":[128.74414000000002,-15.778129999999997]},"properties":{"OBJECTID":291,"FEATTYPE":"Town","NAME":"KUNUNURRA","FEATREL":"2004-04-17T00:00:00.000Z","ATTRREL":"2004-04-17T00:00:00.000Z","PLANACC":9999,"SOURCE":"GEOSCIENCE AUSTRALIA","CREATED":"2006-05-09T00:00:00.000Z","RETIRED":"1899-11-30T00:00:00.000Z","PID":3836908,"SYMBOL":0,"FEATWIDTH":0,"ORIENTATN":0,"TEXTNOTE":""}}
]}